"","PARKING_CODE","PARKING_NAME","ADDR","CAPACITY","PAY_NM","LAT","LNG","RATES","TIME_RATE","ADD_RATES","ADD_TIME_RATE"
"1","173590","구룡공영주차빌딩(구)","서초구 양재동 301-6","107","유료","37.47419615","127.04595546","300","10","300","10"
"2","173498","구룡공원구립주차장(구)","서초구 양재동 399-0","132","유료","37.47153994","127.04876259","300","10","300","10"
"3","173474","구룡산1(구)","강남구 개포동 567-25","94","유료","37.4760669788","127.067284946","200","5","200","5"
"4","173389","구룡산2(구)","강남구 개포동 126-2","124","유료","37.47725982","127.06647741","200","5","200","5"
"5","173048","구름다리주차장(구)","양천구 신월동 915-4","52","유료","37.52421803","126.83288523","50","5","50","5"
"6","173285","구릉주차장(구)","동작구 신대방동 351-14","22","유료","37.49873369","126.92745018","150","5","150","5"
"7","1510252","구민회관앞 이륜자동차주차장(구)","중구 을지로6가 18-14 0","20","무료","37.56821519","127.00642423","0","0","0","0"
"27","911542","구산동마을공원지하공동주차장(구)","은평구 구산동 340-1","77","유료","37.61473937","126.9084649","100","5","100","5"
"28","1454227","구청사주변(구)","노원구 상계동 739-2","35","유료","37.65369823","127.05623614","250","5","0","0"
"63","1454231","구청사주변(구)","노원구 상계동 739-4","47","유료","37.65486819","127.05655869","250","5","0","0"
"110","1509677","국립의료원옆 노상공영주차장(구)","중구 을지로6가 18-79 0","16","유료","37.56699598","127.00612082","350","5","350","5"
"126","1555282","국민대앞북악주차(구)","성북구 정릉동 880-1","6","유료","37.6094152","126.99708657","150","5","300","10"
"132","1560292","국민대앞북악주차(구)","성북구 정릉동 880-1","44","유료","37.6098392","126.99521553","150","5","300","10"
"176","1545035","국민은행앞 노상주차장(구)","영등포구 여의도동 15-22","15","유료","37.5286178","126.91898609","1000","10","1000","10"
"191","1542982","국민일보사옥앞 노상주차장(구)","영등포구 여의도동 12-0","28","유료","37.52916042","126.9241268","1000","10","1000","10"
"219","1441337","금천구 시흥동 997-1(구)","금천구 시흥동 997-1","120","유료","37.45368598","126.89727773","100","5","0","0"
"220","172097","금호초등학교(건물)(구)","성동구 금호동2가 511-0","124","유료","37.55257521","127.02015861","100","5","100","5"
"221","1526016","기륭전자(구)","금천구 가산동 219-7","33","유료","37.47420571","126.88776809","500","10","500","10"
"254","1449828","길음시장(구)","성북구 길음동 1286-8","56","유료","37.60369981","127.02211219","150","5","150","5"
"255","1079122","길음역환승주차장(구)","성북구 하월곡동 104-112","147","유료","37.60423761","127.02581826","150","5","150","5"
"256","172321","까치공원공영주차장(구)","중랑구 면목동 570-0","90","유료","37.58344393","127.08734739","100","5","100","5"
"257","1384007","까치산 전통시장 고객주차장(구)","강서구 화곡동 342-16","19","유료","37.53154144","126.84786095","250","5","250","5"
"258","1552766","나들목공영주차장(구)","중랑구 중화동 304-36","117","유료","37.60000395","127.07815528","250","5","250","5"
"375","1451409","낙산성곽 버스전용 주차장(구)","종로구 창신동 615-62","9","무료","37.58024201","127.01003529","0","0","0","0"
"384","1452552","낙산성곽길 이륜자동차주차장(구)","종로구 창신동 67-2","23","무료","37.5722107","127.00957728","0","0","0","0"
"407","173578","난곡동제1공영주차장(舊신림3동 공영주차장)(구)","관악구 신림동 626-82","119","유료","37.47220821","126.92315827","50","5","50","5"
"408","1511395","남대문시장2번게이트앞 이륜자동차주차장(시)","중구 남대문로4가 3-6 0","8","무료","37.56081922","126.97756119","0","0","0","0"
"416","1511157","남대문시장3번게이트 이륜자동차주차장(시)","중구 남대문로3가 13-3 0","10","무료","37.56098007","126.97832641","0","0","0","0"
"426","1511188","남대문시장알파문구앞 이륜자동차주차장(시)","중구 남대문로4가 3-6 0","53","무료","37.56033077","126.97629081","0","0","0","0"
"479","1566863","남대문시장연세상가앞 이륜자동차주차장(시)","중구 남창동 235-1 0","19","무료","37.55760957","126.97647624","0","0","0","0"
"498","1511351","남대문시장자유상가앞 이륜차주차장(시)","중구 남대문로3가 13-3 0","14","무료","37.56121387","126.97961264","0","0","0","0"
"512","1384005","남부골목 전통시장 고객주차장(구)","강서구 화곡동 797-7","17","유료","37.53231129","126.86085655","250","5","250","5"
"513","1041840","남산동 공영주차장(구)","중구 남산동2가 30-4","49","유료","37.55923691","126.98562404","250","5","250","5"
"514","1511992","남산소파길 노상 공영주차장(구)","중구 예장동 8-172 0","13","유료","37.55669584","126.98540056","250","5","250","5"
"527","1509919","남평화시장앞 노상공영주차장(구)","중구 신당동 779-0 0","31","유료","37.56890012","127.01142731","500","5","500","5"
"558","173364","남현동제1공영주차장(舊남현동 거주자우선주차장)(구)","관악구 남현동 1063-1","65","유료","37.47570006","126.97929422","250","5","250","5"
"559","172564","냉천길 공영주차장(구)","강북구 미아동 756-1","103","유료","37.62400561","127.01953853","200","5","200","5"
"560","1574991","노원세무서 앞 공영주차장(구)","도봉구 창동 15-0","28","유료","37.65401238","127.05202441","250","5","0","0"
"588","1040225","논현로22길(구)","강남구 개포동 1266-0","100","유료","37.48150119","127.04781332","200","5","200","5"
"589","173440","논현로32길15(구)","강남구 도곡동 516-2","21","유료","37.48430646","127.04341808","300","5","300","5"
"590","1042410","논현초교(구)","강남구 논현동 168-0","192","유료","37.50822463","127.02626245","300","5","300","5"
"591","172900","누리주차장(구)","양천구 신정동 323-13","20","유료","37.51540127","126.86271381","150","5","150","5"
"592","1509189","뉴국제호텔 앞 노상 공영주차장(구)","중구 태평로1가 18-0 0","17","유료","37.56819564","126.97824564","600","5","600","5"
"609","172303","늘봄주차장(구)","중랑구 면목동 22-12","72","유료","37.58985533","127.09643555","100","5","100","5"
"610","172908","능골주차장(구)","양천구 신월동 152-38","61","유료","37.533186","126.82455218","50","5","50","5"
"611","171830","다동공원 제4부지 공영주차장(구)","중구 다동 39-3","15","유료","37.56823533","126.98025108","400","5","400","5"
"612","1510828","다동쉼터 노상공영주차장(구)","중구 다동 46-0 0","7","유료","37.56794477","126.98004106","600","5","600","5"
"619","172928","다락골주차장(구)","양천구 신정동 1158-1","102","유료","37.51614281","126.84966724","50","5","50","5"
"620","1415929","다목적 공영주차장(구)","금천구 독산동 971-0","46","유료","37.47633196","126.9018971","65","5","65","5"
"621","171941","다산동 공영주차장(구)","중구 신당동 432-1584","86","유료","37.55454233","127.00852431","150","5","150","5"
"622","1424206","다산아트공영주차장(구)","중구 신당동 432-612","76","유료","37.55167324","127.0047041","150","5","150","5"
"623","172941","달마을주차장(구)","양천구 목동 532-18","30","유료","37.54437302","126.87163762","50","5","50","5"
"624","1370506","답십리 부품상가 노상(구)","동대문구 답십리동 959-10","75","유료","37.56549705","127.05980409","500","10","500","10"
"699","172892","당곡주차장(구)","양천구 신월동 482-11","45","유료","37.52437054","126.84509862","50","5","50","5"
"700","1366869","당곡중학교공영 (지하주차장)(구)","관악구 봉천동 682-0","159","유료","37.49190539","126.93300345","50","5","50","5"
"701","173193","당산1동공영(구)","영등포구 당산동3가 6-1","91","유료","37.52376124","126.8996074","100","5","100","5"
"702","173208","당산2동(구)","영등포구 당산동 121-105","30","유료","37.52824898","126.90779447","150","5","150","5"
"703","1544852","당산고가 밑 이륜차 전용주차장(구)","영등포구 당산동5가 1-2","1","무료","37.53329412","126.90149297","0","0","0","0"
"704","1454200","(구)북부지법주변(구)","노원구 공릉동 594-0","18","유료","37.61998709","127.07728221","250","5","0","0"
"722","1454061","(구)북부지법주변(구)","노원구 공릉동 594-0","1","유료","37.62019862","127.0772157","250","5","0","0"
"723","1441370","32공영주차장(구)","강남구 신사동 564-0","26","유료","37.52166886","127.02679454","400","5","400","5"
"724","1550995","KBS별관뒤 노상주차장(구)","영등포구 여의도동 45-0","26","유료","37.51947175","126.92944048","500","5","500","5"
"750","1551688","KBS별관옆 노상주차장(구)","영등포구 여의도동 46-0","20","유료","37.51920439","126.93006627","1000","10","1000","10"
"770","1543663","KBS본관 앞 노상주차장(구)","영등포구 여의도동 17-0","71","유료","37.52627185","126.91849089","1000","10","1000","10"
"841","1541973","KBS연구관앞 노상주차장(구)","영등포구 여의도동 18-1","59","유료","37.52644619","126.91466702","1000","10","1000","10"
"900","1526914","LG텔레콤(구)","금천구 가산동 60-36","43","유료","37.47523217","126.88828472","500","10","500","10"
"943","1545505","MBC방송국뒤 노상주차장(구)","영등포구 여의도동 31-0","63","유료","37.52298965","126.9317859","1000","10","1000","10"
"61","1526974","SJ테크노빌(구)","금천구 가산동 60-19","37","유료","37.47748197","126.88465558","500","10","500","10"
"43","1547973","SK리더스뷰도로변 노상주차장(구)","영등포구 문래동3가 55-13","11","유료","37.51856603","126.89871696","500","10","500","10"
"54","1544561","SK리더스뷰도로변 노상주차장(구)","영등포구 문래동3가 55-13","19","유료","37.51841561","126.90030011","500","10","500","10"
"73","1545405","가든예식장 앞 노상주차장(구)","영등포구 여의도동 45-1","7","유료","37.51986143","126.92839871","1000","10","1000","10"
"80","173776","가락1동공영(구)","송파구 가락동 98-1","48","유료","37.49442481","127.11884506","250","5","250","5"
"81","173885","가락2동 공영(구)","송파구 가락동 80-2","84","유료","37.49483782","127.11962395","250","5","250","5"
"82","1366430","가로공원주차장(구)","양천구 신월동 263-0","376","유료","37.53710741","126.8290595","150","5","150","5"
"83","173160","가산동공영주차장(구)","금천구 가산동 148-28","130","유료","37.47666086","126.89557749","65","5","65","5"
"84","1526627","가산디지털환승(구)","금천구 가산동 35-2","41","유료","37.48515886","126.88120487","150","5","0","0"
"125","1527034","가산중뒤(구)","금천구 독산동 300-21","20","유료","37.46875025","126.89349793","500","10","500","10"
"145","1525742","가산중뒤(구)","금천구 독산동 300-21","23","유료","37.46776273","126.89423009","500","10","500","10"
"168","1525590","가산중앞(구)","금천구 독산동 300-26","20","유료","37.46837106","126.89497973","500","10","500","10"
"188","1454285","가압장앞(구)","노원구 상계동 117-6","25","유료","37.66620704","127.07569376","150","5","0","0"
"213","1504317","가양3동 황금내공원길(구)","강서구 가양동 1485-0","80","유료","37.56226342","126.86310069","100","5","100","5"
"293","968483","가오리 공영주차장(구)","강북구 수유동 349-3","120","유료","37.64160736","127.01498164","150","5","150","5"
"294","172777","갈현1동공영주차장(구)","은평구 갈현동 9-112","61","유료","37.62648828","126.91533796","100","5","100","5"
"295","1033125","강남관광정보센터-공영주차장(구)","강남구 압구정동 428-0","360","유료","37.52701729","127.02647115","400","5","400","5"
"296","172144","강변(건물)(구)","성동구 성수동1가 366-1","107","유료","37.53696583","127.04904251","100","5","100","5"
"297","1366395","개봉1동 노외주차장(시)","구로구 개봉동 134-8","134","유료","37.50001376","126.8510351","100","5","100","5"
"298","1366394","개봉1동마을공동주차장(구)","구로구 개봉동 416-2","56","유료","37.50455714","126.84608459","50","5","50","5"
"299","173860","개운산(구)","성북구 종암동 54-182","27","유료","37.59688064","127.02640598","900","30","300","10"
"300","173468","개포동공원(구)","강남구 개포동 183-2","149","유료","37.48949036","127.06623841","200","5","200","5"
"301","1042423","개포로24길33(구)","강남구 개포동 1204-0","36","유료","37.47715365","127.04992891","200","5","200","5"
"302","1277148","개화산역(시)","강서구 방화동 526-16","310","유료","37.5725151417","126.804391913","100","5","100","5"
"303","173886","거여동 공영주차장(구)","송파구 거여동 33-16","137","유료","37.49227702","127.15038338","50","5","50","5"
"304","1535915","거주자우선주차장(구)","성동구 마장동 783-7","124","유료","37.56642634","127.04498517","250","5","250","5"
"341","1534666","거주자우선주차장(구)","성동구 성수동2가 276-5","58","유료","37.54066358","127.05569333","250","5","250","5"
"399","1536649","거주자우선주차장(구)","성동구 성수동2가 277-43","232","유료","37.54645235","127.06297334","250","5","250","5"
"6231","1522166","거주자우선주차장(구)","강동구 명일동 51-1","51","유료","37.55178222","127.15420013","250","5","250","5"
"673","1521849","거주자우선주차장(구)","강동구 성내동 540-0","32","유료","37.53026154","127.12433892","250","5","250","5"
"705","1565653","거주자우선주차장(시)","성동구 옥수동 343-4","8","유료","37.54190287","127.01697324","100","5","100","5"
"713","172695","건영백화점앞(구)","노원구 중계동 507-0","137","유료","37.63958481","127.06519865","250","5","250","5"
"714","173169","견인보관소 노외(구)","금천구 가산동 614-34","55","유료","37.48299347","126.87581985","300","10","0","0"
"715","1415512","견인보관소(구)","동대문구 휘경동 361-0","40","유료","37.58901132","127.0691229","500","10","500","10"
"716","1505123","경남 공영주차장(구)","마포구 서교동 376-5","22","유료","37.55540693","126.92088322","250","5","250","5"
"738","1551387","경남아파트 앞 노상주차장(구)","영등포구 영등포동7가 56-0","19","유료","37.52442181","126.90227549","200","10","200","10"
"757","1544223","경남아파트 앞 노상주차장(구)","영등포구 당산동3가 56-0","7","유료","37.52456958","126.90209724","200","10","200","10"
"764","1545771","경도상가앞 노상주차장(구)","영등포구 여의도동 44-0","16","유료","37.51990257","126.93056312","1000","10","1000","10"
"780","1449826","경동고(구)","성북구 삼선동3가 43-1","124","유료","37.58574745","127.01498402","150","5","150","5"
"781","1451268","경복궁역 이륜차주차장(구)","종로구 내자동 67-2","5","무료","37.57623266","126.9723516","0","0","0","0"
"786","1448769","경부제3녹지공영주차장(구)","영등포구 신길동 69-39","143","유료","37.51357817","126.92346995","100","5","100","5"
"787","1564128","경호빌딩앞 노상주차장(구)","영등포구 여의도동 25-0","10","유료","37.52364898","126.92595523","1000","10","1000","10"
"797","1576344","고분다리 전통시장 공영주차장(구)","강동구 천호동 280-9","26","유료","37.54304932","127.13222357","150","5","150","5"
"798","173104","고척1동마을공동주차장(구)","구로구 고척동 52-54","88","유료","37.50228329","126.86393268","100","5","100","5"
"799","1431448","고척근린공원지하주차장(시)","구로구 고척동 9-14","199","유료","37.50559235","126.85197253","150","5","150","5"
"800","781512","곰달래 문화복지센터 공영주차장(구)","강서구 화곡동 890-0","245","유료","37.52904612","126.84886082","100","5","100","5"
"801","1542843","곰달래로5길 노상(구)","양천구 신월동 126-36","74","유료","37.53399445","126.83229217","300","10","300","10"
"875","172965","곰달래주차장(구)","양천구 신월동 226-9","107","유료","37.52954694","126.83606909","50","5","50","5"
"876","172840","공덕1-1 공영주차장(구)","마포구 공덕동 11-243","81","유료","37.54738044","126.9609133","1000","60","500","30"
"877","173001","공항동(송정역)(시)","강서구 공항동 42-8","11","유료","37.56034439","126.81066489","150","5","150","5"
"878","1577118","관악신사시장 공영주차장(구)","관악구 신림동 494-37","13","유료","37.48671865","126.91728163","150","5","150","5"
"879","1277158","광운대입구(구)","성북구 장위동 135-1","18","유료","37.61714694","127.05625181","100","5","100","5"
"880","172498","광운대입구주차장(시)","성북구 장위동 135-4","18","유료","37.61703576","127.05620911","600","30","200","10"
"881","172936","광장주차장(구)","양천구 목동 907-19","42","유료","37.53545496","126.87938194","150","5","150","5"
"882","1247661","광진광장공영(구)","광진구 군자동 374-7","36","유료","37.54770648","127.07326955","250","5","250","5"
"883","1451404","광화문빌딩(구)","종로구 당주동 40-9","16","유료","37.57159097","126.97384239","1000","10","1000","10"
"899","173685","교대역동측주차장(구)","서초구 서초동 1673-7","32","유료","37.49383778","127.01550867","800","10","800","10"
"9001","1562530","교보생명 앞 노상주차장(구)","영등포구 당산동2가 71-0","26","유료","37.5216468","126.89161011","500","10","500","10"
"926","1551744","교보생명 앞 노상주차장(구)","영등포구 양평동1가 71-0","9","유료","37.52143768","126.89145923","500","10","500","10"
"935","1562399","교보생명옆 노상주차장(구)","영등포구 당산동2가 21-26","13","유료","37.52092673","126.8924706","300","10","300","10"
"948","172594","교통광장 공영주차장(구)","강북구 우이동 265-0","56","유료","37.66206284","127.00848322","200","5","200","5"
"949","173139","구로2동 마을공동주차장(구)","구로구 구로동 317-187","81","유료","37.4914815","126.88831207","100","5","100","5"
"950","173077","구로3동마을주차장(구)","구로구 구로동 797-1","20","유료","37.48502453","126.88844294","50","5","50","5"
"951","1432682","구로4동 주택가 공동 주차장(구)","구로구 구로동 741-44","198","유료","37.48968656","126.88695201","100","5","100","5"
"952","173073","구로5동마을공동주차장(구)","구로구 구로동 549-73","81","유료","37.50085864","126.88604808","100","5","100","5"
"953","173093","구로리공원지하주차장(구)","구로구 구로동 139-82","203","유료","37.4908967","126.89160489","150","5","150","5"
"954","984688","구로아트밸리 지하주차장(구)","구로구 구로동 102-0","245","유료","37.4969958","126.88959831","150","5","150","5"
"955","1415917","구룡 공영주차장(구)","금천구 시흥동 964-0","19","유료","37.47789414","126.90275504","65","5","65","5"
"956","172480","마을공원(구)","성북구 장위동 77-79","98","유료","37.61717024","127.05335506","150","5","150","5"
"957","172918","마을마당주차장(구)","양천구 신월동 129-6","114","유료","37.53065845","126.83321825","50","5","50","5"
"958","1423842","마장 축산물시장 서문(구)","성동구 마장동 522-1","130","유료","37.5704876","127.03832741","250","5","250","5"
"959","1535433","마장동거주자우선주차장(구)","성동구 마장동 783-7","124","유료","37.56631207","127.04489477","250","5","250","5"
"46","1052741","마장동축산물(평면)(구)","성동구 마장동 525-0","35","유료","37.57156287","127.03953148","250","5","250","5"
"47","1535927","마장축산물시장 남문(구)","성동구 마장동 805-0","175","유료","37.56753561","127.03994092","250","5","250","5"
"222","1537854","마장축산물시장 현대아파트 앞 노상공영주차(구)","성동구 마장동 84-0","59","유료","37.57052454","127.04241228","250","5","250","5"
"281","173692","마천동1 공영주차장(구)","송파구 마천동 214-0","217","유료","37.49512534","127.1556049","50","5","50","5"
"282","173821","마천동2공영주차장(구)","송파구 마천동 364-5","116","유료","37.49436437","127.1561092","50","5","50","5"
"283","1372128","마천동3공영주차장(구)","송파구 마천동 128-4","47","유료","37.49615427","127.14984862","100","5","100","5"
"284","1510531","맑은내길 노상공영주차장(구)","중구 신당동 213-0 0","17","유료","37.56876556","127.01218076","500","5","500","5"
"3011","1556541","맛솜씨공영주차장(구)","중랑구 망우동 490-21","69","유료","37.59834229","127.09668449","250","5","250","5"
"370","1507084","망원 유료 주차장(구)","마포구 망원동 394-79","86","유료","37.55327949","126.90304026","150","5","150","5"
"456","172907","망원1-1 공영주차장(구)","마포구 망원동 418-39","68","유료","37.55602414","126.90004655","1000","60","500","30"
"457","1247678","망원1-2 공영주차장(구)","마포구 망원동 403-2","150","유료","37.55558459","126.90587312","100","5","100","5"
"458","172943","망원2-1 공영주차장(구)","마포구 망원동 428-5","62","유료","37.55778757","126.9015162","1000","60","500","30"
"459","1366575","망원동 노외 공영주차장(구)","마포구 망원동 478-10","13","유료","37.55955925","126.90660108","100","5","100","5"
"460","1412826","매바위공영주차장(구)","은평구 응암동 747-8","80","유료","37.58652245","126.92108714","100","5","100","5"
"461","1554337","매화공영주차장(구)","중랑구 상봉동 85-41","28","유료","37.59503446","127.08942238","250","5","250","5"
"489","804444","면목2동공영주차장(구)","중랑구 면목동 146-1","199","유료","37.58795027","127.08085785","100","5","100","5"
"490","172378","면목5동공영주차장(구)","중랑구 면목동 162-22","67","유료","37.58296438","127.08007497","100","5","100","5"
"491","1417234","면목초교주자창(구)","중랑구 면목동 192-1","82","유료","37.58919215","127.07579481","100","5","100","5"
"492","171778","명광교회공영주차장(구)","종로구 명륜3가 12-0","8","유료","37.58674057","126.99647565","250","5","250","5"
"493","1575634","모래내로1(시)","서대문구 남가좌동 84-2","11","무료","37.57672401","126.92814325","0","0","0","0"
"504","1575644","모래내로2(시)","서대문구 남가좌동 84-2","11","무료","37.57386114","126.92370712","0","0","0","0"
"515","1526113","모아래5길~천주교성당뒤(구)","금천구 가산동 237-123","1","유료","37.47321653","126.89070007","1500","30","500","10"
"516","1527134","모아래5길~천주교성당뒤(구)","금천구 가산동 237-123","11","유료","37.473489","126.89075107","500","10","500","10"
"5271","1528242","모아래5길~천주교성당뒤(구)","금천구 독산동 336-3","25","유료","37.47097013","126.89025448","500","10","500","10"
"552","172916","목2동 월촌(구)","양천구 목동 525-0","79","유료","37.54595116","126.87462298","50","5","50","5"
"553","172952","목3동 해운주차장(구)","양천구 목동 711-6","64","유료","37.54193427","126.86513021","50","5","50","5"
"554","172904","목동공영주차장(구)","양천구 목동 915-0","1022","유료","37.52769446","126.87805665","150","5","150","5"
"555","1371690","목동타운홀(구)","양천구 목동 905-21","25","유료","37.53292894","126.87687749","300","10","300","10"
"556","171901","묵정공원지하 공영주차장(구)","중구 충무로5가 21-0","502","유료","37.56379141","126.99979555","400","5","400","5"
"557","1554299","묵중안공영주차장(구)","중랑구 중화동 250-39","194","유료","37.60516865","127.07738306","250","5","250","5"
"751","173184","문래근린공원공영(구)","영등포구 문래동3가 60-2","50","유료","37.51544615","126.89379467","250","5","250","5"
"752","173185","문래동공영(구)","영등포구 문래동5가 3-0","60","유료","37.51631443","126.8877957","150","5","150","5"
"753","1547874","문래동주민센터 앞 노상주차장(구)","영등포구 문래동3가 55-16","13","유료","37.5168413","126.90011724","500","10","500","10"
"766","1372154","문정 공영주차장(구)","송파구 문정동 2-5","101","유료","37.49122464","127.13469292","100","5","100","5"
"767","173673","문정근린공원(구)","송파구 문정동 38-3","286","유료","37.48599491","127.12464869","150","5","150","5"
"768","171956","문화공영주차장(구)","중구 신당동 425-1","31","유료","37.55654107","127.01096085","150","5","150","5"
"769","1040348","문화회관 지하주차장(구)","양천구 신정동 322-0","93","유료","37.51655891","126.86329776","150","5","150","5"
"7701","172914","문화회관동측(구)","양천구 신정동 322-5","80","유료","37.51706546","126.86384249","150","5","150","5"
"771","172902","문화회관서측(구)","양천구 신정동 323-25","23","유료","37.51635934","126.86255573","150","5","150","5"
"772","172874","미근동노외(시)","서대문구 미근동 267-3","27","유료","37.56225368","126.9683494","250","5","250","5"
"773","173696","미도아파트앞주차빌딩(구)","서초구 반포동 49-8","181","유료","37.50003784","127.01046283","300","10","300","10"
"774","1545783","미래에셋빌딩 앞 노상주차장(구)","영등포구 여의도동 45-0","24","유료","37.51964775","126.92776496","1000","10","1000","10"
"7981","1366794","미아동공영주차장(구)","강북구 미아동 222-100","155","유료","37.6285679","127.02235964","150","5","150","5"
"7991","1037569","바람개비주차장(구)","양천구 목동 919-8","186","유료","37.53033824","126.87427489","150","5","150","5"
"8001","1140910","반포2동 공영주차장(구)","서초구 반포동 5-1","134","유료","37.50421414","126.99542312","300","10","300","10"
"8011","1577279","반포4동 주민센터(구)","서초구 반포동 74-7","51","유료","37.497486","127.00033894","300","10","300","10"
"802","173521","반포동방음언덕형구립주차장(구)","서초구 반포동 730-0","94","유료","37.50486336","127.01835867","300","10","300","10"
"803","1529853","반포복개천 노상공영주차장(구)","서초구 반포동 57-0","39","유료","37.50308221","127.01055871","0","0","800","10"
"842","1140911","반포서래(구)","서초구 반포동 95-13","8","유료","37.49814931","126.99783192","300","10","300","10"
"843","172901","밝은빛주차장(구)","양천구 신정동 323-18","23","유료","37.51619431","126.86135283","150","5","150","5"
"844","1527633","방배복개도로 제1지역 노상공영주차장(구)","서초구 방배동 493-2","100","유료","37.47962838","126.98235275","0","0","500","10"
"897","1025696","당산근린공원지하공영(구)","영등포구 당산동3가 385-0","190","유료","37.52552609","126.89579413","150","5","150","5"
"898","1506993","당인 유료 주차장(구)","마포구 합정동 362-1","46","유료","37.54752494","126.91827004","300","5","300","5"
"944","1524619","대륭1차~아톰(구)","금천구 가산동 345-48","34","유료","37.47190937","126.88252412","500","10","500","10"
"978","173250","대림1동공영(구)","영등포구 대림동 834-1","155","유료","37.49314103","126.90163365","100","5","100","5"
"979","173245","대림2동공영(구)","영등포구 대림동 1072-25","154","유료","37.49153125","126.89972706","50","5","50","5"
"980","173238","대림3동공영(구)","영등포구 대림동 745-1","105","유료","37.4980273","126.90049706","50","5","50","5"
"981","1509934","대림상가노상공영주차장(구)","중구 산림동 174-0 0","73","유료","37.56688694","126.99532129","500","5","500","5"
"541","173277","대림어린이공원지하공영(구)","영등포구 대림동 870-0","198","유료","37.49120884","126.90348861","100","5","100","5"
"55","1025697","대림운동장(구)","영등포구 대림동 780-0","192","유료","37.49965667","126.89483844","50","5","50","5"
"56","173291","대방생태공영주차장(구)","동작구 대방동 395-1","36","유료","37.50018478","126.92629251","150","5","150","5"
"57","1551948","대신시장 노상주차장(구)","영등포구 신길동 116-15","15","유료","37.51079268","126.91720704","200","10","200","10"
"72","1561598","대신시장 노상주차장(구)","영등포구 신길동 116-15","18","유료","37.5118209","126.91730254","200","10","200","10"
"90","1441361","대왕초교(구)","강남구 세곡동 517-0","100","유료","37.46445115","127.10558271","100","5","100","5"
"91","172530","대지시장길 공영주차장(구)","강북구 미아동 703-8","47","유료","37.62016376","127.02031635","200","5","200","5"
"92","173472","대청역(구)","강남구 개포동 13-2","169","유료","37.49495555","127.07932368","100","5","100","5"
"93","173359","대치2문화센터(구)","강남구 대치동 980-9","159","유료","37.50227954","127.06420443","300","5","300","5"
"94","1525783","덕성엔앰피(구)","금천구 가산동 345-15","27","유료","37.47263129","126.88357852","500","10","500","10"
"121","1247683","덕원주차장(구)","동대문구 장안동 458-8","77","유료","37.5623712","127.06876256","1000","30","300","10"
"122","173499","도곡로 327(구)","강남구 역삼동 765-22","22","유료","37.496258","127.05174035","400","5","400","5"
"123","173447","도곡로 421(구)","강남구 대치동 939-21","29","유료","37.49782255","127.05648634","400","5","400","5"
"124","1364466","도곡로21길7(구)","강남구 역삼동 795-25","78","유료","37.49250002","127.0388068","400","5","400","5"
"1251","1441342","도곡초교(구)","강남구 대치동 924-10","200","유료","37.49906096","127.05468508","300","5","300","5"
"1261","1548764","도림고가 노상주차장(구)","영등포구 문래동1가 39-0","63","유료","37.51499179","126.90352344","200","10","200","10"
"189","173246","도림초등학교공영(구)","영등포구 신길동 285-1","145","유료","37.5081015","126.90745856","50","5","50","5"
"190","172592","도봉2동 법조타운 공영주차장(구)","도봉구 도봉동 624-105","164","유료","37.67364352","127.04646965","100","5","100","5"
"1911","1372873","도봉산역 환승주차장(시)","도봉구 도봉동 288-19","364","유료","37.68972069","127.04483862","100","5","100","5"
"192","881056","도서관주차장(구)","양천구 목동 905-32","48","유료","37.53344049","126.87660968","150","5","150","5"
"193","172084","도선동(지하)(구)","성동구 홍익동 369-0","186","유료","37.565567","127.0316914","100","5","100","5"
"194","790441","도화 공영주차장(구)","마포구 도화동 557-0","65","유료","37.54155295","126.94993374","250","5","250","5"
"195","892053","도화공영주차장(구)","동작구 상도동 244-183","58","유료","37.49982342","126.9355137","150","5","150","5"
"196","173123","독산1동공영주차장(구)","금천구 독산동 1006-94","66","유료","37.46497295","126.89480923","65","5","65","5"
"197","173142","독산2동 공영주차장(구)","금천구 독산동 1050-17","66","유료","37.46385909","126.90006149","65","5","65","5"
"198","173129","독산3동공영주차장(구)","금천구 독산동 898-24","50","유료","37.4794979","126.9063548","65","5","65","5"
"199","1434175","독산4동 공영주차장(구)","금천구 독산동 187-40","50","유료","37.46943849","126.90450653","65","5","65","5"
"200","789092","동개울주차장(구)","양천구 신정동 919-6","40","유료","37.52726441","126.85563298","150","5","150","5"
"201","1505570","동교동 노상 공영주차장(구)","마포구 서교동 332-1","67","유료","37.55677574","126.92709379","400","5","400","5"
"268","172272","동답 공영주차장(구)","동대문구 답십리동 2-283","67","유료","37.56938534","127.06355487","1000","60","0","0"
"269","1509256","동대문비즈센터앞 이륜자동차 주차장(구)","중구 신당동 200-5 0","9","무료","37.56631869","127.01283079","0","0","0","0"
"278","1371673","동대문소방서노상(구)","동대문구 장안동 434-0","9","유료","37.56365506","127.06694485","500","10","500","10"
"287","1543204","동문굿모닝탑 옆(구)","양천구 신정동 324-3","17","유료","37.51492985","126.86122902","150","5","150","5"
"3041","172540","동방고개(구)","성북구 장위동 230-110","66","유료","37.61469255","127.04100323","150","5","150","5"
"305","1554749","동부갯 공영주차장(구)","중랑구 신내동 487-1","72","유료","37.59975249","127.09660438","250","5","250","5"
"377","171945","동산공영주차장(구)","중구 신당동 333-260","83","유료","37.55634366","127.01597608","150","5","150","5"
"378","173698","동산마을구립주차장(구)","서초구 양재동 370-5","121","유료","37.47009388","127.04432613","500","10","500","10"
"379","1577817","동서시장 과일채소부 공영주차장(구)","동대문구 제기동 849-0","94","유료","37.57982414","127.0408616","300","10","300","10"
"473","1577863","동서시장 식품 공영주차장(구)","동대문구 제기동 854-1","65","유료","37.58230772","127.04052175","300","10","300","10"
"538","172184","동서울 노외주차장(구)","광진구 구의동 598-1","25","유료","37.53352007","127.0913292","250","5","250","5"
"539","1514883","동서울 호텔길 공영주차장(B)(구)","광진구 구의동 735-0","34","유료","37.53196168","127.09189313","250","5","250","5"
"549","1514755","동서울 호텔길 공영주차장(B)(구)","광진구 자양동 735-0","19","유료","37.53157826","127.09173722","250","5","250","5"
"561","1514905","동서울 호텔길(A) 공영주차장(자양동)(구)","광진구 구의동 695-0","34","유료","37.53340526","127.09174691","250","5","250","5"
"562","1514758","동서울 호텔길(A) 공영주차장(자양동)(구)","광진구 자양동 695-0","7","유료","37.53374588","127.09153881","250","5","250","5"
"563","1512113","동서울 호텔길(A) 공영주차장(자양동)(구)","광진구 자양동 695-0","41","유료","37.53000399","127.08853568","250","5","250","5"
"604","1514885","동서울길 공영주차장(B)(구)","광진구 구의동 735-0","34","유료","37.53226446","127.09185983","250","5","250","5"
"6232","1514763","동서울길 공영주차장(B)(구)","광진구 자양동 695-0","19","유료","37.53315717","127.09157781","250","5","250","5"
"630","1515336","동서울길(A) 공영주차장(구)","광진구 구의동 695-0","8","유료","37.5342433","127.09157381","250","5","250","5"
"638","1514902","동서울길(A) 공영주차장(구)","광진구 자양동 695-0","7","유료","37.53331763","127.09156374","250","5","250","5"
"644","1514904","동서울길(A) 공영주차장(자양동)(구)","광진구 구의동 695-0","34","유료","37.53361535","127.09173295","250","5","250","5"
"648","1545232","동아빌딩앞 노상주차장(구)","영등포구 여의도동 14-0","10","유료","37.52907804","126.92057486","1000","10","1000","10"
"658","172384","동원시장공영주차장(구)","중랑구 면목동 74-33","26","유료","37.58987969","127.09314874","100","5","100","5"
"659","1452343","동일상가아파트 이륜전용주차장(구)","종로구 숭인동 234-81","8","무료","37.57150169","127.01927402","0","0","0","0"
"667","1056834","동작주차공원(구)","동작구 동작동 326-0","147","유료","37.50309257","126.97826859","100","5","100","5"
"668","171924","동화동공영주차장(구)","중구 신당동 52-7","129","유료","37.56137409","127.01900035","150","5","150","5"
"669","1524803","두산공원A~B(구)","금천구 가산동 153-18","19","유료","37.47366303","126.89264075","500","10","500","10"
"688","1524605","두산공원A~B(구)","금천구 독산동 298-1","14","유료","37.47307961","126.89401448","500","10","500","10"
"7021","172696","등나무근린공원(구)","노원구 중계동 508-1","151","유료","37.64027756","127.06769919","250","5","250","5"
"7031","172957","등촌 2-1주택가공영주차장(구)","강서구 등촌동 531-5","91","유료","37.54982067","126.86134372","50","5","50","5"
"7041","1504286","등촌3동 구암길(구)","강서구 등촌동 695-0","52","유료","37.56004193","126.84535093","250","5","250","5"
"756","1504253","등촌3동 꿈나무길(구)","강서구 등촌동 701-0","59","유료","37.56054971","126.8468555","250","5","250","5"
"815","1536462","뚝도시장(구)","성동구 성수동2가 335-60","17","유료","37.5380749","127.05460166","500","10","500","10"
"832","1438232","뚝섬안내센터앞(한강공원)(시)","광진구 자양동 435-0","356","유료","37.5286166","127.07222676","1000","30","100","5"
"833","1438091","뚝섬윈드서핑장옆(한강공원)(시)","광진구 자양동 558-3","99","유료","37.52772418","127.07910406","1000","30","200","10"
"834","1438220","뚝섬청담대교밑(한강공원)(시)","광진구 자양동 97-5","136","유료","37.5310785","127.06461833","1000","30","200","10"
"835","1577123","라온드베뉴(구)","중랑구 망우동 207-2","200","유료","37.60007938","127.10435413","100","5","100","5"
"836","1543331","렉싱턴호텔뒤 노상주차장(구)","영등포구 여의도동 13-0","12","유료","37.52980408","126.92176408","1000","10","1000","10"
"848","1451636","롯데캐슬 뒤 이륜전용주차장(구)","종로구 숭인동 76-1","8","무료","37.57420786","127.01653897","0","0","0","0"
"856","1561632","롯데캐슬앞 노상주차장(구)","영등포구 여의도동 36-0","9","유료","37.52064199","126.92663091","1000","10","1000","10"
"865","1012254","마들스타디움(근린공원)(구)","노원구 상계동 770-2","177","유료","37.64391748","127.05856743","150","5","150","5"
"866","1577091","마른내길 이륜자동차주차장(구)","중구 오장동 148-21 0","6","무료","37.56452251","127.00015298","0","0","0","0"
"872","1451386","숭인상가아파트 이륜전용주차장(구)","종로구 숭인동 204-14","6","무료","37.57207315","127.0206907","0","0","0","0"
"8781","171810","숭인제3공영주차장(구)","종로구 숭인동 227-8","27","유료","37.57328256","127.01893273","400","5","400","5"
"8791","172459","시네마빌딩공영주차장(구)","성북구 돈암동 538-59","100","유료","37.59916723","127.01474097","150","5","150","5"
"8801","173488","시민의숲동측(양재천주차장 포함) 공영주차장(구)","서초구 양재동 237-0","148","유료","37.4723039","127.03822651","500","10","500","10"
"8811","172562","시범 공영주차장(구)","강북구 수유동 190-11","45","유료","37.64005648","127.02595849","250","5","250","5"
"8821","1371688","시설관리공단 청사 주차장(구)","양천구 목동 919-5","22","유료","37.53034734","126.87136627","150","5","150","5"
"8831","1440587","시흥 4동 (삼성)공영주차장(구)","금천구 시흥동 171-1","51","유료","37.45459691","126.90901165","65","5","65","5"
"884","1440586","시흥 4동 공용주차장(구)","금천구 시흥동 704-56","124","유료","37.4594198","126.90871246","65","5","65","5"
"885","173141","시흥1동 공영주차장(구)","금천구 시흥동 555-3","82","유료","37.45065167","126.89672588","65","5","",""
"886","173153","시흥3동 공영주차장(구)","금천구 시흥동 942-6","44","유료","37.44294835","126.90574806","65","5","65","5"
"887","1398740","신교공영(구)","종로구 신교동 66-0","158","유료","37.58411794","126.9698478","150","5","150","5"
"888","1441353","신구초교(구)","강남구 신사동 550-11","194","유료","37.52309456","127.02429256","300","5","300","5"
"889","173299","신길4동1마을공원지하공영(구)","영등포구 신길동 232-20","130","유료","37.50718232","126.91174763","50","5","50","5"
"890","1448767","신길6동공영(구)","영등포구 신길동 3203-0","132","유료","37.50246528","126.91114553","50","5","50","5"
"891","173196","신길역사(1호선)(구)","영등포구 신길동 54-2","25","유료","37.51600191","126.91747003","100","5","100","5"
"892","173150","신길환승(5호선)(구)","영등포구 영등포동1가 35-0","88","유료","37.51775234","126.91460391","100","5","100","5"
"893","1579098","신답고가 주변(구)","동대문구 답십리동 530-6","22","유료","37.57023162","127.05003195","500","10","500","10"
"915","1041839","신당동 공영주차장(구)","중구 신당동 300-11","24","유료","37.56204618","127.01442718","250","5","250","5"
"916","171965","신당사거리공영주차장(구)","중구 신당동 110-1","45","유료","37.56512357","127.0170201","250","5","250","5"
"917","171931","신당역공영주차장(구)","중구 신당동 140-29","26","유료","37.56535145","127.02069649","250","5","250","5"
"918","984617","신도림역환승주차장(구)","구로구 구로동 1-4","65","유료","37.50733447","126.89165319","100","5","100","5"
"919","1033590","신림동공영주차장(구)","관악구 신림동 1456-3","191","유료","37.48736246","126.92343415","250","5","250","5"
"920","1059009","신사동 제1공영주차장(구)","관악구 신림동 511-1","41","유료","37.48444431","126.91546097","50","5","50","5"
"921","1247636","신설동(시)","동대문구 신설동 114-29","102","유료","37.57252061","127.02425684","150","5","150","5"
"922","1515180","신성시장길공영노상주차장(구)","광진구 중곡동 83-16","9","유료","37.55716645","127.09023332","250","5","250","5"
"931","1515916","신성시장길공영노상주차장(구)","광진구 중곡동 88-21","26","유료","37.55524732","127.09294789","250","5","250","5"
"9571","1575375","신성시장길노상공영주차장(구)","광진구 구의동 558-11","4","유료","37.5546375","127.09389588","250","5","250","5"
"961","1576989","신영시장 공동주차장(구)","양천구 신월동 114-16","23","유료","37.53302124","126.83625423","150","5","150","5"
"962","172983","신우주차장(구)","양천구 신월동 166-23","107","유료","37.53444512","126.8285528","50","5","50","5"
"963","1542472","신월1동저지복개1구역(구)","양천구 신월동 228-1","56","유료","37.52854568","126.83854251","300","10","300","10"
"19","1542490","신월1동저지복개2구역(구)","양천구 신월동 90-1","40","유료","37.5352811","126.83441263","300","10","300","10"
"59","1542485","신월5동복개주차장(구)","양천구 신월동 53-2","63","유료","37.53652464","126.82876591","300","10","300","10"
"1221","1579328","신일피혁주변(구)","동대문구 장안동 480-9","17","유료","37.56528749","127.06787673","500","10","0","0"
"139","1542514","신정1,3동 복개(구)","양천구 신정동 1031-0","139","유료","37.52034847","126.85379893","300","10","300","10"
"2781","1538858","신정4동 로데오길(구)","양천구 신정동 890-0","52","유료","37.52801141","126.86272862","300","10","300","10"
"330","1540440","신정4동길(구)","양천구 신정동 902-0","147","유료","37.52637625","126.86256658","300","10","300","10"
"477","172945","신정7동 한사랑교회 앞(구)","양천구 신정동 324-11","125","유료","37.51483512","126.86017529","150","5","150","5"
"478","172005","신창공영주차장(구)","용산구 신창동 53-1","110","유료","37.5353106","126.95521319","150","5","150","5"
"4791","1524961","신천지(구)","금천구 독산동 152-1","22","유료","37.47243744","126.89743605","500","10","500","10"
"501","1377416","신촌역동측광장공영주차장(구)","서대문구 대현동 121-9","26","유료","37.55933566","126.94274488","350","5","350","5"
"502","1454316","신한증권옆(구)","노원구 중계동 366-12","31","유료","37.65135062","127.0776702","250","5","0","0"
"533","1543677","신흥증권앞 노상주차장(구)","영등포구 여의도동 24-0","15","유료","37.52389281","126.92711171","500","5","500","5"
"548","173754","아시아주차장(공영주차장)(구)","송파구 잠실동 84-0","115","유료","37.5102769","127.07624626","250","5","250","5"
"5491","1412862","아차산 공영주차장(시)","광진구 광장동 369-0","39","유료","37.55163204","127.1008538","150","5","150","5"
"550","171966","약수동공영주차장(구)","중구 신당동 349-234","90","유료","37.55222214","127.01335763","150","5","150","5"
"551","1544111","양남사거리 앞 노상주차장(구)","영등포구 당산동2가 30-0","8","유료","37.52236224","126.89156248","250","5","250","5"
"5591","1544007","양남사거리 앞 노상주차장(구)","영등포구 양평동1가 30-0","8","유료","37.52226096","126.89134562","250","5","250","5"
"567","1577280","양재2동주민센터 공영주차장(구)","서초구 양재동 323-1","31","유료","37.47065988","127.0412941","300","10","300","10"
"568","1366487","양재시민의숲(매헌)역 공영주차장(구)","서초구 양재동 237-2","50","유료","37.47037133","127.0385513","500","10","500","10"
"569","1025717","양재역환승주차장(시)","서초구 양재동 23-0","894","유료","37.48352522","127.03434202","1500","30","500","10"
"570","173405","양재주차빌딩(구)","서초구 양재동 90-2","98","유료","37.47860952","127.04136907","300","10","300","10"
"571","1540644","양천경찰서(시)","양천구 신정동 321-0","34","유료","37.51660407","126.86518694","150","5","150","5"
"605","1540923","양천공원옆(구)","양천구 신정동 320-3","11","유료","37.51899194","126.86849919","150","5","150","5"
"616","1371689","양천사회단체봉사센터(구)","양천구 목동 905-29","20","유료","37.53187194","126.87546398","300","10","300","10"
"617","1545782","양평동(동)(시)","영등포구 양평동5가 44-1","6","유료","37.53971367","126.89027153","100","5","100","5"
"6233","1247677","양화진 공영주차장(구)","마포구 합정동 139-21","133","유료","37.545733","126.91120393","100","5","100","5"
"6241","172909","어울림주차장(구)","양천구 신정동 318-2","32","유료","37.52216678","126.86929701","150","5","150","5"
"625","173582","언구비주차빌딩(구)","서초구 반포동 741-3","58","유료","37.50474149","127.02098179","300","10","300","10"
"626","1042405","언북초교(구)","강남구 청담동 27-0","226","유료","37.51999434","127.04565885","300","5","300","5"
"627","1042421","언주초교(구)","강남구 도곡동 922-0","191","유료","37.48664435","127.03705039","200","5","200","5"
"628","1448904","여의도2(마포대교 남단)주차장(시)","영등포구 여의도동 84-4","171","유료","37.52825895","126.93265091","2000","30","150","5"
"629","1448905","여의도3(서강대교남단)주차장(시)","영등포구 여의도동 83-6","800","유료","37.53240356","126.924436","2000","30","150","5"
"6301","1448906","여의도4(여의2교밑)주차장(시)","영등포구 여의도동 19-0","141","유료","37.52521228","126.91286239","2000","30","150","5"
"631","1448907","여의도5(성모병원앞)주차장(시)","영등포구 여의도동 63-0","217","유료","37.51696501","126.93576386","2000","30","150","5"
"632","1545478","여의도공원앞1 노상주차장(구)","영등포구 여의도동 17-0","14","유료","37.52411706","126.91769636","1000","10","1000","10"
"646","1544264","여의도공원앞2 노상주차장(구)","영등포구 여의도동 16-0","14","유료","37.52739599","126.92296917","1000","10","1000","10"
"660","1550846","여의도공원앞3 노상주차장(구)","영등포구 여의도동 16-0","6","유료","37.52792339","126.92382172","1000","10","1000","10"
"666","1543695","여의도백화점 앞 노상주차장(구)","영등포구 여의도동 36-1","19","유료","37.52079244","126.92750205","1000","10","1000","10"
"732","1532458","방배복개도로제2지역 노상공영주차장(구)","서초구 방배동 439-1","99","유료","37.48423071","126.9827769","500","10","500","10"
"831","1418248","방배열린문화센터(구)","서초구 방배동 852-14","109","유료","37.48895873","126.99232981","300","10","300","10"
"8321","1528478","방배중앙로 노상공영주차장(구)","서초구 방배동 760-3","55","유료","37.49616103","126.98558848","0","0","500","10"
"8871","1504262","방신시장 고객주차장(구)","강서구 방화동 858-0","10","유료","37.57199329","126.81340246","500","10","0","0"
"8971","1441378","방이고분(구)","송파구 방이동 125-0","61","유료","37.50794057","127.11819204","100","5","100","5"
"8981","173749","방이동 공영주차장(구)","송파구 방이동 52-1","131","유료","37.51375908","127.11378505","150","5","150","5"
"8991","1028245","방학동 도깨비시장 공영주차장(구)","도봉구 방학동 632-1","80","유료","37.6645806","127.03390568","100","5","100","5"
"9002","1365707","배봉공영주차장(구)","동대문구 휘경동 286-66","199","유료","37.58693739","127.06208584","1000","60","0","0"
"901","171944","버티 공영주차장(구)","중구 신당동 432-1693","92","유료","37.54909105","127.00591066","150","5","150","5"
"902","1370637","번동 햇살 주차장(구)","강북구 번동 148-380","187","유료","37.62509512","127.03343189","150","5","150","5"
"903","1523308","범일운수~신세계물류센터(구)","금천구 독산동 1001-2","45","유료","37.46796309","126.88999276","500","10","500","10"
"9481","172917","법마을공영주차장(구)","양천구 신정동 1018-3","18","유료","37.52165189","126.86056614","50","5","50","5"
"9491","1538637","법안정사(시)","양천구 목동 907-1","38","유료","37.53514247","126.87814732","250","5","250","5"
"987","1529590","법원입구도로 노상공영주차장(구)","서초구 서초동 1704-0","29","유료","37.49431396","127.01054737","0","0","800","10"
"16","1425808","벚꽃길주차장(구)","양천구 신정동 884-8","33","유료","37.52756848","126.85997742","50","5","50","5"
"17","172478","벤처빌딩(구)","성북구 장위동 65-154","56","유료","37.60939012","127.05324627","150","5","150","5"
"18","1561580","벽산디지털밸리앞 노상주차장(구)","영등포구 문래동5가 5-0","33","유료","37.51481009","126.88583083","500","10","500","10"
"51","1441365","보라매공원동문주차장(구)","동작구 신대방동 395-0","52","유료","37.49319703","126.92051431","100","5","100","5"
"52","173353","보라매제1공영주차장(구)","관악구 봉천동 110-4","133","유료","37.48858808","126.93454845","50","5","50","5"
"53","1451640","보문로7길 이륜전용주차장(구)","종로구 숭인동 1495-0","6","무료","37.5775745","127.02261097","0","0","0","0"
"593","1429729","봉산도시자연공원 지하공용주차장(구)","은평구 신사동 55-5","106","유료","37.59751011","126.90402585","100","5","100","5"
"60","1370857","봉수대공영주차장(구)","중랑구 신내동 12-2","31","유료","37.61638404","127.11230008","150","5","150","5"
"613","903979","부군당길공영주차장(구)","동대문구 전농동 273-1","63","유료","37.57823238","127.05461845","1000","60","0","0"
"62","1540938","부영그린(시)","양천구 목동 908-27","18","유료","37.53646124","126.88183489","250","5","250","5"
"804","1441373","북아현 가구단지(구)","서대문구 북아현동 915-0","15","유료","37.55829286","126.96035541","250","5","250","5"
"811","980509","비봉주차장(구)","종로구 구기동 139-9","40","유료","37.61217999","126.9565353","150","5","150","5"
"821","1441366","빙수골장미(구)","동작구 상도동 301-132","64","유료","37.49317759","126.93401758","150","5","150","5"
"837","1527401","사조냉장-무등실업(구)","금천구 독산동 303-2","28","유료","37.47081771","126.89164997","500","10","500","10"
"111","1452323","사직로1(시)","종로구 내자동 20-0 (내자 R ~ 필운동 227 금고)","15","무료","37.57616947","126.97005497","0","0","0","0"
"1262","1452080","사직로2(시)","종로구 내자동 131-0 (내자동131 미유 ~ 내자 R)","9","무료","37.575852","126.97127004","0","0","0","0"
"135","1452742","사직로3(시)","종로구 사직동 240-0 (남양빌딜 ~ 풍림스페이스본 버스정류장)","6","무료","37.57477163","126.96796243","0","0","0","0"
"141","1544255","산업은행앞 노상주차장(구)","영등포구 여의도동 16-0 서울특별시 영등포구시설관리공단","11","유료","37.52771304","126.92050089","500","5","500","5"
"152","1052723","살곶이(평면)(구)","성동구 사근동 104-0","102","유료","37.55384954","127.04829171","50","5","50","5"
"153","172070","삼각주차장(구)","용산구 한강로1가 231-42","12","유료","37.53409224","126.97336294","1500","30","500","10"
"154","1545969","삼각지역(구)","용산구 한강로1가 138-0","12","유료","37.53463901","126.97374633","250","5","250","5"
"166","1042406","삼성1동 문화센터(구)","강남구 삼성동 161-2","67","유료","37.51434435","127.0626519","400","5","400","5"
"167","1526218","삼성물산~마이크로오피스(구)","금천구 가산동 345-26","28","유료","37.47426295","126.88163705","500","10","500","10"
"1951","968503","삼양마을공원지하 공영주차장(구)","강북구 미아동 748-2","95","유료","37.62274538","127.01842794","200","5","200","5"
"1961","173870","삼전동공영주차장(구)","송파구 삼전동 175-8","198","유료","37.50025109","127.09589543","50","5","50","5"
"1971","1451913","삼청공원앞(구)","종로구 삼청동 25-11","18","유료","37.58750345","126.98310853","500","10","500","10"
"215","1510744","삼풍상가 노상 공영주차장(구)","중구 인현동2가 56-0 0","102","유료","37.56560685","126.99582882","500","5","500","5"
"317","1561417","삼환아파트 앞 노상주차장(구)","영등포구 문래동4가 41-0","55","유료","37.51408355","126.8899035","500","10","500","10"
"372","1527239","삼환아파트(구)","금천구 독산동 1004-6","24","유료","37.46479292","126.89066871","1500","30","500","10"
"396","1579351","삼희상가주변(구)","동대문구 답십리동 528-0","16","유료","37.56816995","127.05201158","500","10","500","10"
"412","1040011","상계2동 공영주차장(구)","노원구 상계동 373-13","108","유료","37.6567376","127.06753097","150","5","150","5"
"413","1579833","상계역 서측 주택가 공영주차장(구)","노원구 상계동 169-409","10","유료","37.6600464","127.07105592","150","5","150","5"
"414","172385","상봉2동공영주차장(구)","중랑구 상봉동 110-38","83","유료","37.59305102","127.08421599","100","5","100","5"
"415","172881","상암1 공영주차장(구)","마포구 상암동 1621-0","141","유료","37.57727445","126.8972079","200","5","200","5"
"4161","173168","상인회주차장(시)","금천구 시흥동 886-13","22","유료","37.45327415","126.90331282","1000","30","0","0"
"417","1452132","새문안로2길(노상주차장)(시)","종로구 신문로2가 106-9 (새문안로 2길(씨티은행 옆 ~ 씨네큐브 맞은편","8","무료","37.56892823","126.97165748","0","0","0","0"
"425","1505872","새물결 노상 공영주차장(구)","마포구 동교동 165-1","17","유료","37.55683887","126.92448525","400","5","400","5"
"442","172683","새장골공영주차장(구)","은평구 불광동 480-352","40","유료","37.62446275","126.9235464","100","5","100","5"
"443","968514","색동공원 공영주차장(구)","강북구 수유동 49-7","80","유료","37.63322721","127.02071053","200","5","200","5"
"444","1423651","서강대역 환승 공영주차장(구)","마포구 신수동 93-35","98","유료","37.55102716","126.93646275","150","5","150","5"
"445","171997","서계동공영주차장(구)","용산구 서계동 276-5","36","유료","37.55163663","126.9643958","150","5","150","5"
"446","1527435","서광모드(A)(구)","금천구 가산동 60-33","3","유료","37.47670244","126.88497043","500","10","500","10"
"449","1526252","서광모드(B)(구)","금천구 가산동 60-33","14","유료","37.47523975","126.88578684","500","10","500","10"
"463","173289","서광주차장(구)","동작구 신대방동 607-45","60","유료","37.48879884","126.90784181","150","5","150","5"
"464","173701","서래마을공영주차장(구)","서초구 반포동 90-7","78","유료","37.49715663","126.99877889","300","10","300","10"
"465","1386536","서린노외(글로벌센터)주차장(시)","종로구 서린동 63-0","45","유료","37.56983402","126.98150586","400","5","400","5"
"466","1525457","서부간선도로(구)","금천구 가산동 557-4","75","유료","37.472067","126.88155393","500","10","500","10"
"5411","1579590","서서울(구)","양천구 신월동 267-8","70","유료","37.52814337","126.83194541","50","5","50","5"
"542","1051019","서신초교지하공동주차장(구)","은평구 신사동 193-0","110","유료","37.59220373","126.90669778","100","5","100","5"
"543","1441348","서울마당놀이(구)","송파구 잠실동 47-1","17","유료","37.508919","127.10002585","500","5","500","5"
"544","1511361","서울스퀘어빌딩앞 이륜차 전용주차장(시)","중구 남대문로5가 541-0 0","10","무료","37.55506143","126.97323455","0","0","0","0"
"5541","171724","서인사마당공영(구)","종로구 견지동 85-18","45","유료","37.57352191","126.98380407","400","5","400","5"
"5551","173573","서초역공영주차빌딩(기계식)(구)","서초구 서초동 1542-12","102","유료","37.49053768","127.00897877","500","10","500","10"
"5561","1579832","석계역 앞(구)","노원구 월계동 60-1","29","유료","37.61572968","127.06518388","100","5","100","5"
"5571","173880","석촌고분 주차장(구)","송파구 석촌동 248-0","63","유료","37.5019629","127.10229538","50","5","50","5"
"5581","171932","성곽공영주차장(구)","중구 신당동 432-2026","46","유료","37.55054127","127.00484324","150","5","150","5"
"5592","1413181","성북구 길음동 1070-23(구)","성북구 길음동 1070-23","12","유료","37.60512964","127.02537795","2000","60","0","0"
"5601","172923","성산2-1 공영주차장(구)","마포구 성산동 199-0","59","유료","37.56479289","126.9067217","1000","60","500","30"
"5611","1510322","성산로(시)","마포구 성산동 117-1 (모래내로 고가차로 하부 ~ 성산2교 버스정류","8","무료","37.56587534","126.91369911","0","0","0","0"
"5691","172120","성수1가1동(건물)(구)","성동구 성수동1가 656-260","96","유료","37.53996228","127.04638485","100","5","100","5"
"5701","172134","성수2가1동 (건물)(구)","성동구 성수동2가 571-1","165","유료","37.53716718","127.05619675","100","5","100","5"
"5711","172130","성수2가3동 (건물)(구)","성동구 성수동2가 299-19","198","유료","37.54913662","127.05519826","100","5","100","5"
"572","1536445","성수2가3동거주자우선주차장(구)","성동구 성수동2가 277-43","232","유료","37.54402022","127.0608514","250","5","250","5"
"580","1548628","성애병원 앞 노상주차장(구)","영등포구 신길동 451-2","2","유료","37.51172262","126.92259737","500","10","500","10"
"582","1551398","성애병원 앞 노상주차장(구)","영등포구 신길동 451-2","10","유료","37.51182089","126.92267167","500","10","500","10"
"5921","1544943","성애병원 앞 노상주차장(구)","영등포구 신길동 451-2","5","유료","37.51166233","126.92325989","500","10","500","10"
"597","1543100","세우빌딩 앞노상주차장(구)","영등포구 여의도동 10-0","13","유료","37.53055801","126.92588891","1000","10","1000","10"
"6101","1451795","세운상가밑(구)","종로구 장사동 116-3","34","유료","37.56917369","126.99503625","1000","10","1000","10"
"6441","1527454","세일철강~LG전자연구소(구)","금천구 가산동 319-15","28","유료","37.47228828","126.88511096","500","10","500","10"
"672","171975","손기정체육공원 공영주차장(구)","중구 만리동2가 6-1","162","유료","37.55559696","126.96497303","150","5","150","5"
"6731","1515153","송림 기사식당길 공영주차장(A)(구)","광진구 자양동 227-1","45","유료","37.53538816","127.07620852","200","5","200","5"
"718","1516130","송림 기사식당길 공영주차장(A)(구)","광진구 자양동 794-0","39","유료","37.53406828","127.07606992","200","5","200","5"
"7571","1575872","송림기사식당길(B) 공영주차장(구)","광진구 자양동 584-11","8","유료","37.53124659","127.07498495","200","5","200","5"
"765","1575863","송림기사식당길(B) 공영주차장(구)","광진구 자양동 601-5","9","유료","37.5321987","127.07552315","200","5","200","5"
"7741","1366504","송정동(건물)(구)","성동구 송정동 68-57","122","유료","37.549976","127.0680728","100","5","100","5"
"775","172550","송중동 공영주차장(구)","강북구 미아동 48-1","53","유료","37.61165492","127.03363616","200","5","200","5"
"776","1034345","송중동(임시)공영주차장(구)","강북구 미아동 860-123","6","유료","37.61105539","127.03349783","200","5","200","5"
"777","1366791","송천동공영주차장(구)","강북구 미아동 439-138","59","유료","37.61458475","127.0251644","150","5","150","5"
"778","1441397","송파근린공원(구)","송파구 송파동 113-2","324","유료","37.50590513","127.10979617","150","5","150","5"
"779","173877","송파동 공영주차장(구)","송파구 송파동 128-0","85","유료","37.50704487","127.11336408","50","5","50","5"
"7801","173679","송파체비치 주차장(구)","송파구 송파동 148-2","40","유료","37.5063385","127.11789217","50","5","50","5"
"7811","1384008","송화골목 전통시장 고객주차장(구)","강서구 내발산동 720-4","24","유료","37.54910323","126.83465308","250","5","250","5"
"782","1453862","수락산디자인서울거리(구)","노원구 상계동 996-2","71","유료","37.67450283","127.05955087","150","5","0","0"
"853","172643","수색동공영주차장(구)","은평구 수색동 78-2","111","유료","37.58049896","126.89893152","100","5","100","5"
"854","1575653","수색로(시)","서대문구 남가좌동 293-3","10","무료","37.56959993","126.91462732","0","0","0","0"
"864","1034344","수유2동 공영주차장(구)","강북구 수유동 660-30","62","유료","37.64603214","127.02190809","150","5","150","5"
"8651","1366795","수유동쌈지마당공영주차장(구)","강북구 수유동 612-6","19","유료","37.63207449","127.02361923","250","5","250","5"
"8661","1439690","수유마을시장 공영주차장(구)","강북구 수유동 55-53","116","유료","37.63066419","127.02184586","100","5","100","5"
"867","1366792","수유일공원공영주차장(구)","강북구 수유동 605-407","91","유료","37.63061186","127.01743071","200","5","200","5"
"868","1525626","조양화학(구)","금천구 가산동 336-25","36","유료","37.47277477","126.88671296","500","10","500","10"
"904","1526945","조양화학(구)","금천구 독산동 336-25","16","유료","37.47111973","126.88744778","500","10","500","10"
"9201","173333","조원동 제1공영주차장(구)","관악구 신림동 571-6","108","유료","37.48108305","126.90574042","250","5","250","5"
"9211","1451753","종각(구)","종로구 관철동 45-9","13","유료","37.56954998","126.98357958","1000","10","1000","10"
"934","1451426","종로3가역(구)","종로구 훈정동 38-2","5","유료","37.57255414","126.99342772","1000","10","1000","10"
"939","1451723","종로3가역(구)","종로구 묘동 21-0","5","유료","37.57262866","126.99198722","1000","10","1000","10"
"9441","1451707","종로3가역(구)","종로구 봉익동 36-11","49","유료","37.57217071","126.99376961","1000","10","1000","10"
"993","1451828","종로40길 이륜자동차주차장(구)","종로구 종로6가 318-3","111","무료","37.57098063","127.00708226","0","0","0","0"
"104","1452762","종로63가길 이륜자동차주차장(구)","종로구 숭인동 58-2","5","무료","37.57724429","127.01866158","0","0","0","0"
"109","1451392","종로구 누하동   (구)","종로구 누하동 7-0","7","무료","37.57985851","126.96863957","0","0","0","0"
"116","1453839","주공11단지상가뒤(구)","노원구 상계동 652-4","13","유료","37.66646381","127.0567031","250","5","0","0"
"129","1454490","주공11단지상가뒤(구)","노원구 상계동 652-4","13","유료","37.66467787","127.05716286","250","5","0","0"
"142","1453860","주공12단지상가뒤(구)","노원구 상계동 647-1","11","유료","37.66698563","127.05785535","250","5","0","0"
"1531","1454548","주공12단지상가뒤(구)","노원구 상계동 647-1","11","유료","37.6653163","127.05829546","250","5","0","0"
"164","1454506","주공1~3단지주변(구)","노원구 상계동 745-0","24","유료","37.65063976","127.06096825","250","5","0","5"
"1881","1454284","주공1~3단지주변(구)","노원구 상계동 765-2","20","유료","37.64806959","127.06191425","250","5","0","5"
"208","1570021","주공3단지상가주변(구)","노원구 상계동 736-0","44","유료","37.65325326","127.05975929","250","5","0","0"
"252","1453805","주공4~6단지주변(구)","노원구 상계동 750-0","15","유료","37.6506519","127.06225244","250","5","0","5"
"267","1454502","주공4~6단지주변(구)","노원구 상계동 750-0","8","유료","37.64940719","127.06263162","250","5","0","5"
"275","1454083","주공5단지옆(구)","노원구 중계동 359-16","31","유료","37.65197389","127.07670495","250","5","0","0"
"306","1570023","주공6단지상가주변(구)","노원구 상계동 723-2","41","유료","37.65359081","127.06102971","250","5","0","0"
"347","1454288","주공7단지옆(구)","노원구 상계동 693-5","17","유료","37.65622974","127.06053389","250","5","0","0"
"364","1554796","주막거리공영주차장(구)","중랑구 상봉동 127-19","26","유료","37.59404214","127.07757359","250","5","250","5"
"390","1522935","주양쇼핑앞(구)","강동구 명일동 51-1","51","유료","37.55183497","127.15322547","250","5","250","5"
"391","1520883","주양쇼핑옆(구)","강동구 명일동 47-21","45","유료","37.55284885","127.15299197","250","5","250","5"
"436","1513653","중곡복개천 공영주차장(B)(구)","광진구 중곡동 277-20","35","유료","37.56194617","127.08280355","200","5","200","5"
"471","1512529","중곡복개천 공영주차장(구)","광진구 중곡동 150-196","41","유료","37.56033903","127.08617192","200","5","250","10"
"5121","1410226","중곡시장주차장(구)","광진구 중곡동 221-6","19","유료","37.56387377","127.08198483","250","5","0","0"
"5131","1577121","중곡초교(구)","중랑구 면목동 380-0","140","유료","37.57427209","127.08377631","100","5","100","5"
"5141","1447973","중구구민회관 부설(구)","중구 을지로6가 18-14","71","유료","37.56862553","127.00601146","250","5","250","5"
"5151","1447999","중림종합복지센터 부설주차장(구_중림(제5))(구)","중구 중림동 155-1","65","유료","37.55947076","126.96616091","250","5","250","5"
"5161","1544144","중마루공원앞 노상주차장(구)","영등포구 영등포동2가 222-0","34","유료","37.5197808","126.91093702","500","10","500","10"
"5501","1028036","중산공영주차장(구)","동대문구 답십리동 23-3","58","유료","37.56867158","127.05892065","1000","60","0","0"
"5511","1564266","중소기업협동조합앞 노상주차장(구)","영등포구 여의도동 16-0","5","유료","37.52868452","126.92207205","1000","10","1000","10"
"5562","173522","중앙로공영주차빌딩(구)","서초구 방배동 977-17","50","유료","37.48225393","126.99203575","300","10","300","10"
"5572","1567061","중앙우체국옆 이륜자동차주차장(구)","중구 충무로1가 15-0 0","23","무료","37.56198572","126.98160593","0","0","0","0"
"5801","1509352","중앙의료원옆 이륜자동차 주차장(구)","중구 을지로6가 18-79 0","12","무료","37.56733973","127.00724763","0","0","0","0"
"5922","172386","중화1동공영주차장(구)","중랑구 중화동 29-2","130","유료","37.60270927","127.08165711","100","5","100","5"
"5931","1553250","중화동(시)","중랑구 중화동 61-2","11","유료","37.59441808","127.07229896","100","5","100","5"
"6041","1512040","진양상가노상공영주차장(구)","중구 인현동2가 181-0 0","102","유료","37.56324609","126.99605217","500","5","500","5"
"706","1542827","진주아파트 옆 노상주차장(구)","영등포구 여의도동 54-4","56","유료","37.51790233","126.9338384","1000","10","1000","10"
"762","1452701","창경궁로1(시)","종로구 와룡동 2-86 (종로구 창경궁로(창경궁 주차장 ~ 창경궁 홍","11","무료","37.58018324","126.9963732","0","0","0","0"
"7731","1451769","창대교회 옆 이륜전용주차장(구)","종로구 숭인동 62-9","2","무료","37.57457238","127.01631651","0","0","0","0"
"7751","1574972","창동역 (구)구청별관주차장(구)","도봉구 창동 5-1","30","유료","37.6524969","127.04978278","250","5","0","0"
"805","171802","창신1동공영주차장(창일공영)(구)","종로구 창신동 82-0","89","유료","37.57488143","127.0150838","2000","240","",""
"806","1451755","창신쌍용2지구 북측 이륜차주차장(구)","종로구 창신동 37-16","9","무료","37.58056997","127.01065569","0","0","0","0"
"8151","1452469","창의문로(시)","종로구 청운동 15-57 (벽산빌리지 9동 앞 ~ 청운중학교 100m 앞)","40","무료","37.5916861","126.96834034","0","0","0","0"
"855","788447","창천중교 공영주차장(구)","마포구 노고산동 33-1","280","유료","37.55473789","126.93943744","200","5","200","5"
"8561","1441362","천마(구)","송파구 마천동 1-5","140","유료","","","50","5","50","5"
"857","1404936","천왕역 광역환승센터(시)","구로구 오류동 174-10","330","유료","37.48728845","126.83918316","100","5","100","5"
"858","1247641","천호2동노외주차장(구)","강동구 천호동 457-7","13","유료","37.54032781","127.12304831","250","5","250","5"
"859","1515742","천호2동제2(구)","강동구 천호동 431-2","5","유료","37.54013309","127.12308045","250","5","0","0"
"8641","1452705","청계 화물(시)","종로구 종로5가 490-0","1","유료","37.56982469","127.00377796","500","5","650","5"
"8652","1042402","역삼1동 문화센터(구)","강남구 역삼동 829-20","118","유료","37.49534845","127.03323757","400","5","400","5"
"8662","1441360","역삼문화공원(구)","강남구 역삼동 635-0","59","유료","37.50229995","127.03006081","300","5","300","5"
"8671","1051018","연광초교지하공동주차장(구)","은평구 불광동 400-6","152","유료","37.62387156","126.92422148","100","5","100","5"
"8681","1508122","연남 유료 주차장(구)","마포구 연남동 260-29","78","유료","37.56113599","126.9242091","250","5","250","5"
"946","1368504","연신중학교지하공동주차장(구)","은평구 불광동 400-4","137","유료","37.6232864","126.92508572","100","5","100","5"
"947","1451515","열린마당(구)","종로구 세종로 111-0 옆","13","유료","37.57527737","126.97875478","1000","10","1000","10"
"960","172912","염리 공영주차장(구)","마포구 염리동 174-3","135","유료","37.54199792","126.94523726","250","5","250","5"
"9611","1510832","영국대사관 옆 노상 공영주차장(구)","중구 정동 5-1 0","13","유료","37.56657538","126.97602679","600","5","600","5"
"974","1425391","영등포구청별관청사(구)","영등포구 당산동3가 560-0","61","유료","37.528464","126.89437002","150","5","150","5"
"975","173192","영등포구청역(시)","영등포구 당산동3가 370-3","139","유료","37.52432737","126.89548892","150","5","150","5"
"976","1577281","영등포구청환승주차장(구)","영등포구 당산동3가 370-4","66","유료","37.52462558","126.89564732","100","5","100","5"
"977","173186","영등포동제1공영(구)","영등포구 영등포동2가 230-0","34","유료","37.52091713","126.91009196","150","5","150","5"
"9781","173218","영등포동제2공영(구)","영등포구 영등포동7가 29-122","28","유료","37.523784","126.90858163","100","5","100","5"
"9791","1254863","영등포동제3공영(구)","영등포구 영등포동4가 442-0","172","유료","37.51707492","126.90334294","250","5","250","5"
"9801","173152","영등포본동제1공영(구)","영등포구 영등포동 592-10","194","유료","37.51440196","126.90917949","100","5","100","5"
"9811","1416322","영등포본동제2공영(구신길2동)(구)","영등포구 신길동 186-355","61","유료","37.51332538","126.91407775","50","5","50","5"
"982","1025695","영등포여자고등학교지하공영(구)","영등포구 신길동 184-3","98","유료","37.51520496","126.91511598","50","5","50","5"
"983","1551797","영등포역 이륜자동차주차장(구)","영등포구 영등포동3가 618-496","21","무료","37.51628222","126.90679022","0","0","0","0"
"41","1562046","영등포중앙시장 노상주차장(구)","영등포구 영등포동7가 5-1","8","유료","37.52229912","126.9084773","200","10","200","10"
"12","1364472","영희초교(구)","강남구 일원동 617-0","187","유료","37.49192117","127.08129163","100","5","100","5"
"13","1404649","오류1동 텃골주차장(구)","구로구 오류동 6-11","84","유료","37.4954652","126.83924837","100","5","100","5"
"14","172563","오패산공영주차장(구)","강북구 미아동 133-100","76","유료","37.6221541","127.03114725","150","5","150","5"
"15","173759","온조대왕 문화체육관옆(구)","강동구 고덕동 300-0","25","유료","37.55756224","127.15717643","150","5","150","5"
"161","172228","외대역주차빌딩 공영(구)","동대문구 이문동 306-14","84","유료","37.59504107","127.0626248","500","10","500","10"
"172","1525980","요업기술원-LG전자뒤(구)","금천구 가산동 237-101","55","유료","37.47373261","126.88941949","500","10","500","10"
"721","1505611","용강동 노상 공영주차장(구)","마포구 용강동 122-15","54","유료","37.54236769","126.94020963","250","5","250","5"
"1263","1535569","용답동거주자우선주차장(구)","성동구 용답동 225-13","22","유료","37.56152792","127.05879094","250","5","250","5"
"148","1397591","용답제2(평면)(구)","성동구 용답동 182-10","141","유료","37.56328524","127.05628296","150","5","150","5"
"149","172318","용마폭포공원공영주차장(구)","중랑구 면목동 1-4","119","유료","37.57337582","127.0911424","100","5","100","5"
"150","172007","용문동주차장(구)","용산구 도원동 4-5","41","유료","37.53894931","126.95756768","150","5","150","5"
"151","172068","용산2가소월주차장(구)","용산구 용산동2가 11-0","56","유료","37.54621474","126.98558224","150","5","150","5"
"1521","172027","용산전자상가1(구)","용산구 한강로3가 12-0","202","유료","37.53204956","126.96477998","250","5","250","5"
"1532","172021","용산전자상가2(구)","용산구 한강로3가 14-1","196","유료","37.53266756","126.96308865","250","5","250","5"
"1541","172015","용산전자상가3(구)","용산구 한강로3가 19-2","160","유료","37.53258192","126.9603249","250","5","250","5"
"155","1268813","용산전자상가4(구)","용산구 원효로3가 51-5","114","유료","37.53388844","126.9600572","250","5","250","5"
"156","172018","용산전자상가5(구)","용산구 한강로3가 2-1","42","유료","37.53381412","126.96341541","250","5","250","5"
"157","172934","우리공영주차장(구)","양천구 목동 907-8","40","유료","37.53665073","126.87917722","150","5","150","5"
"158","1526726","우리은행(구)","금천구 가산동 140-41","13","유료","37.47685612","126.89036115","500","10","500","10"
"171","1552758","우림시장공영주차장(구)","중랑구 망우동 486-10","55","유료","37.59875811","127.09821968","250","5","250","5"
"226","172935","웃우물 주차장(시)","양천구 신정동 943-25","79","유료","37.52379759","126.85141746","150","5","150","5"
"227","1525056","웅진코웨이~sk트윈타워(구)","금천구 가산동 345-2","48","유료","37.4743007","126.884379","500","10","500","10"
"2751","1451560","원서공원(구)","종로구 와룡동 206-0","15","유료","37.57774739","126.9893215","500","10","500","10"
"290","1451908","원서공원(구)","종로구 원서동 206-0","2","유료","37.57844214","126.98931704","500","10","500","10"
"292","173329","원신공영주차장(구)","관악구 신림동 366-0","174","유료","37.469935","126.92928532","50","5","50","5"
"2931","1576699","월계역(시)","노원구 월계동 589-3","40","유료","37.634598","127.059314","100","5","100","5"
"2941","1454104","유경백화점뒤(구)","노원구 중계동 364-16","36","유료","37.64868375","127.07721012","250","5","0","0"
"3301","1527496","유진골프장(구)","금천구 독산동 1081-2","40","유료","37.46920185","126.8882966","500","10","500","10"
"3701","1032247","은평평화공원(구)","은평구 녹번동 153-1","143","유료","37.60573659","126.92310827","150","5","150","5"
"371","172367","은행나무공영주차장(구)","중랑구 면목동 107-5","97","유료","37.58701918","127.09149573","100","5","100","5"
"3721","172083","응봉동(건물)(구)","성동구 행당동 341-59","71","유료","37.55334376","127.03074237","50","5","50","5"
"373","1052737","응봉동(평면)(구)","성동구 응봉동 3-11","69","유료","37.55039155","127.03448112","100","5","100","5"
"374","172703","응암3동공동주차장(구)","은평구 응암동 580-4","160","유료","37.59345156","126.91539487","100","5","100","5"
"3751","1578767","이경시장 공영주차장(구)","동대문구 이문동 86-52","27","유료","37.59569053","127.06522532","500","10","500","10"
"402","173485","이수공영주차장(구)","서초구 방배동 761-3","161","유료","37.49609844","126.98523586","300","10","300","10"
"403","1438219","이촌한강공원주차장(시)","용산구 이촌동 376-0","150","유료","37.52096923","126.9597975","1000","30","200","10"
"404","172041","이태원2동 공영주차장(구)","용산구 이태원동 227-9","112","유료","37.54036639","126.99265839","250","5","250","5"
"405","1549315","이태원로(시)","용산구 한남동 738-29 (이태원로 제일기획 삼거리 ~ 리움미술관 삼","20","무료","37.53627334","127.00011311","0","0","0","0"
"4251","1509502","이화여고 앞 노상 공영주차장(구)","중구 순화동 1-1 0","14","유료","37.56532003","126.9684567","250","5","250","5"
"439","172580","인수동 공영주차장(구)","강북구 수유동 126-0","89","유료","37.63608367","127.01844991","200","5","200","5"
"440","173810","일원1동(기계식)(구)","강남구 일원동 684-8","64","유료","37.48948769","127.08176548","100","5","100","5"
"441","1366601","일원동(시)","강남구 일원동 711-1","21","유료","37.49134485","127.08842777","50","5","50","5"
"4421","1366602","일원터널(시)","강남구 일원동 722-2","11","유료","37.48280832","127.07875524","100","5","100","5"
"4431","172218","자양4동 공영(구)","광진구 자양동 5-5","86","유료","37.53867795","127.06824343","150","5","150","5"
"4441","1412893","자양전통시장 공영주차장(구)","광진구 자양동 631-18","24","유료","37.53380376","127.08160385","250","5","250","5"
"4451","1140909","잠원동방음언덕형공영주차장(구)","서초구 잠원동 10-33","94","유료","37.51638775","127.0163891","300","10","300","10"
"4461","1247682","장안1동민자유치(장안주차장)(구)","동대문구 장안동 392-11","77","유료","37.56942934","127.06702282","1500","30","500","10"
"447","1277146","장안2동 노외주차장(시)","동대문구 장안동 286-9","80","유료","37.5782752","127.07061896","100","5","100","5"
"448","1575595","장안공원지하주차장(구)","동대문구 장안동 300-0","163","유료","37.57739367","127.07139607","1000","60","0","0"
"4491","1190919","장안보성연립노상주차장(구)","동대문구 장안동 427-4","12","유료","37.56598784","127.06579549","500","10","500","10"
"4611","172259","장영당길 공영주차장(구3동)(구)","동대문구 답십리동 484-7","193","유료","37.56865003","127.05316279","1000","60","0","0"
"462","172518","장위3동공영주차장(한천로)(구)","성북구 장위동 158-1","53","유료","37.62091287","127.05258084","300","10","0","0"
"4631","1577276","장위전통시장 공영주차장(구)","성북구 장위동 68-130","20","유료","37.61025825","127.04986039","150","5","150","5"
"4641","171971","장충공영주차장(구)","중구 장충동2가 193-39","106","유료","37.56001","127.00131646","150","5","150","5"
"4651","1549661","장충단로(시)","용산구 한남동 9-19","5","무료","37.54736853","127.00267749","0","0","0","0"
"470","1534533","장한평자동차시장 노상공영주차장(구)","성동구 용답동 225-13","310","유료","37.56026951","127.06382265","250","5","250","5"
"7802","1449827","정릉시장(구)","성북구 정릉동 405-4","20","유료","37.60821867","127.00942122","150","5","150","5"
"7812","1577583","정릉천변 공영주차장(구)","동대문구 제기동 1159-0","62","유료","37.58459028","127.03634129","500","10","500","10"
"8431","1579491","정화여상 노상(구)","동대문구 제기동 855-0","74","유료","37.58468379","127.04053902","500","10","500","10"
"9171","1541909","현대41타워앞(구)","양천구 목동 917-2","24","유료","37.52785626","126.87486177","300","10","300","10"
"9341","1525943","협동봉제조합(구)","금천구 가산동 139-31","13","유료","37.47905793","126.88855157","500","10","500","10"
"9471","1543642","호성빌딩앞 노상주차장(구)","영등포구 여의도동 44-22","22","유료","37.52014323","126.9293498","1000","10","1000","10"
"969","1505187","홍대서측 노상 공영주차장(구)","마포구 서교동 366-19","168","유료","37.55146838","126.92140231","400","5","400","5"
"137","1563389","홍우빌딩앞 노상주차장(구)","영등포구 여의도동 43-0","11","유료","37.52139515","126.93007387","1000","10","1000","10"
"1481","782904","홍은 1동 제4 공영 주차장(구)","서대문구 홍은동 11-23","105","유료","37.60142195","126.94894256","50","5","50","5"
"1491","172089","홍익동(건물)(구)","성동구 홍익동 252-0","85","유료","37.5656391","127.03390496","100","5","100","5"
"1501","781511","화곡1-1 주택가공영주차장(구)","강서구 화곡동 424-94","98","유료","37.53142687","126.83988701","50","5","50","5"
"1511","1505241","화곡1동 달구지길(구)","강서구 화곡동 361-1","29","유료","37.53310359","126.83725275","250","5","250","5"
"180","1503333","화곡1동 배다리서길(구)","강서구 화곡동 914-3","299","유료","37.52838428","126.84172696","250","5","250","5"
"4361","1504180","화곡2동 배다리동길(구)","강서구 화곡동 881-14","209","유료","37.52905134","126.85217587","200","5","200","5"
"480","173009","화곡2-1 주택가공영주차장(구)","강서구 화곡동 167-10","60","유료","37.53604907","126.85245729","50","5","50","5"
"6091","1502564","화곡4동 배다리동길(구)","강서구 화곡동 842-11","82","유료","37.53006778","126.85916453","200","5","200","5"
"6381","172993","화곡5-1 주택가공영주차장(구)","강서구 화곡동 1030-33","27","유료","37.54391908","126.83972466","50","5","50","5"
"639","173014","화곡5-2 주택가공영주차장(구)","강서구 화곡동 1056-2","25","유료","37.54423955","126.84075413","50","5","50","5"
"640","173013","화곡6-1주택가공영주차장(구)","강서구 화곡동 1103-6","300","유료","37.55298682","126.84843416","100","5","100","5"
"641","1504310","화곡6동 방죽길(구)","강서구 화곡동 1112-1","66","유료","37.55432476","126.85238801","250","5","250","5"
"728","781509","화곡4-1주택가공영주차장(구)","강서구 화곡동 809-26","138","유료","37.53431225","126.86105755","50","5","50","5"
"8411","1504503","화곡6동 신학대길(구)","강서구 화곡동 980-19","51","유료","37.55152622","126.85122894","250","5","250","5"
"8921","172962","화곡7-1 주택가공영주차장(구)","강서구 화곡동 370-63","86","유료","37.53601946","126.83916655","50","5","50","5"
"8931","173020","화곡8-2 주택가공영주차장(구)","강서구 화곡동 410-4","84","유료","37.53771095","126.85036083","50","5","50","5"
"894","173019","화곡본-1 주택가공영주차장(구)","강서구 화곡동 56-127","99","유료","37.53975106","126.84979428","50","5","50","5"
"895","173018","화곡본-2 주택가공영주차장(구)","강서구 화곡동 46-127","100","유료","37.54432744","126.8484532","50","5","50","5"
"896","172215","화양동 공영(구)","광진구 화양동 63-2","44","유료","37.54530284","127.07121883","150","5","150","5"
"8972","1541239","화재보험협회 앞 노상주차장(구)","영등포구 여의도동 35-0","16","유료","37.52123509","126.92657083","1000","10","1000","10"
"913","1431644","황학어린이공원지하주차장(구)","중구 황학동 755-0","113","유료","37.56754712","127.01813313","200","5","200","5"
"914","172282","회기동 공영주차장(구)","동대문구 회기동 1-1","100","유료","37.59208429","127.0554514","1000","60","0","0"
"9151","1579409","회기역주변 공영주차장(구)","동대문구 휘경동 255-3","85","유료","37.59023459","127.06105432","500","10","500","10"
"1000","173091","효봉공영주차장(구)","금천구 시흥동 3-129","66","유료","37.46077721","126.91096477","65","5","65","5"
"11","1437691","효창공원 공영주차장(구)","용산구 효창동 3-151","60","유료","37.54685815","126.96212169","250","5","250","5"
"21","1549630","효창공원1(구)","용산구 효창동 3-151","61","유료","37.54591127","126.95948739","250","5","250","5"
"633","1438848","효창공원2 공영주차장(구)","용산구 효창동 255-0","83","유료","37.54505098","126.96046664","250","5","250","5"
"64","1547511","효창공원2(구)","용산구 효창동 255-1","83","유료","37.54486444","126.95804172","250","5","250","5"
"147","1268816","후암동주차장(구)","용산구 후암동 65-4","39","유료","37.55048874","126.97648587","150","5","150","5"
"1482","1509353","훈련원공원 노상 공영주차창(구)","중구 을지로6가 1-42 0","8","유료","37.56760266","127.00499641","350","5","350","5"
"1561","1027845","휘경마을 공영주차장(구)","동대문구 휘경동 308-32","78","유료","37.5880691","127.05809327","1000","60","0","0"
"1571","1247680","휘경유수지 공영주차장(구)","동대문구 휘경동 348-0","55","유료","37.58908686","127.06977384","500","10","500","10"
"1581","173261","흑석빗물펌프장공영주차장(구)","동작구 흑석동 105-0","45","유료","37.50858008","126.96297589","190","5","190","5"
"159","1451954","힐스테이트옆 이륜차 주차장(구)(구)","종로구 숭인동 766-2","5","무료","37.57520211","127.02094848","0","0","0","0"
"1641","1511927","청계8가 노상 공영주차장(시)","중구 흥인동 162-1 0","19","유료","37.5697519","127.01649595","500","5","650","5"
"183","1140956","청계산 청룡주차장(구)","서초구 신원동 224-3","41","유료","37.44657405","127.05988618","200","10","200","10"
"184","1370001","청계산근린광장(구)","서초구 원지동 355-1","89","유료","37.44649791","127.0561579","200","10","200","10"
"185","1247684","청계주차장(구)","동대문구 용두동 129-4","122","유료","37.57223438","127.03429455","1500","30","500","10"
"186","1579275","청계천 주변(구)","동대문구 신설동 94-4","23","유료","37.57312638","127.02776345","500","10","0","0"
"209","1579288","청계천 주변(구)","동대문구 용두동 255-41","29","유료","37.57237339","127.02808181","500","10","0","0"
"238","1454201","청구건영아파트옆(구)","노원구 중계동 360-4","42","유료","37.64812598","127.07605847","250","5","0","0"
"280","171933","청구공영주차장(구)","중구 신당동 330-17","51","유료","37.55897429","127.01340538","250","5","250","5"
"2811","1506715","청기와 유료 주자창(구)","마포구 서교동 479-4","84","유료","37.55734933","126.91392215","250","5","250","5"
"365","172297","청량리동 공영주차장(구)","동대문구 청량리동 435-0","67","유료","37.58544944","127.04455223","1000","60","0","0"
"366","172230","청량리동 노외주차장(구)","동대문구 청량리동 51-4","26","유료","37.58404715","127.04901881","1000","60","0","0"
"367","1511112","청소년회관 뒤 노상 공영주차장(구)","중구 수표동 50-1 0","8","유료","37.56750928","126.99033122","500","5","500","5"
"3752","1268780","청파동1마을공원공영주차장(구)","용산구 청파동3가 118-102","105","유료","37.54294115","126.96847142","150","5","150","5"
"376","1268812","청파동청사(구)","용산구 청파동2가 91-1","32","유료","37.54549939","126.96991775","150","5","150","5"
"3771","171914","초동 공영주차장(구)","중구 초동 64-11","73","유료","37.56416856","126.99213555","400","5","400","5"
"3781","1010089","초안산근린공원주차장(구)","도봉구 창동 24-0","68","유료","37.64927895","127.04047436","0","","300","10"
"3791","1546018","충신교회(구)","용산구 이촌동 302-31","23","유료","37.52037313","126.96732783","250","5","250","5"
"4021","171939","충현공영주차장(구)","중구 신당동 432-462","111","유료","37.55220869","127.00568111","150","5","150","5"
"4031","172755","충현동 제1거주자우선주차장(구)","서대문구 충정로2가 78-13","63","유료","37.56518547","126.96460687","50","5","50","5"
"4041","173534","치매지원센터(구)","강남구 삼성동 113-26","115","유료","37.5102479","127.04645828","400","5","400","5"
"4051","1566862","코오롱빌딩옆 노상공영주차장(구)","중구 태평로1가 82-0 0","18","유료","37.56727633","126.97824353","600","5","600","5"
"423","1547351","크라운호텔(구)","용산구 이태원동 34-22","61","유료","37.53162405","126.9931818","250","5","250","5"
"484","1364468","탄천제2호(구)","강남구 일원동 4-47","309","유료","37.4941244027","127.087438559","100","5","100","5"
"485","173437","탄천주차장(구)","강남구 삼성동 171-0","987","유료","37.51441586","127.0662917","100","5","100","5"
"486","1451728","탑골공원(구)","종로구 낙원동 38-5","8","유료","37.57181156","126.98786301","1000","10","1000","10"
"494","1451787","탑골공원(구)","종로구 종로2가 38-5","7","유료","37.57192499","126.98805725","1000","10","1000","10"
"5011","1562920","태양빌딩앞 노상주차장(구)","영등포구 여의도동 44-0","11","유료","37.52039329","126.93007168","1000","10","1000","10"
"5122","1451533","태화관(구)","종로구 관훈동 194-27","5","유료","37.57236339","126.9849763","1000","10","1000","10"
"517","1451424","태화관(구)","종로구 인사동 194-27","11","유료","37.57229875","126.98452383","1000","10","1000","10"
"528","1525109","통일중공업~천지산업(구)","금천구 가산동 371-57","9","유료","37.47769172","126.88287962","500","10","500","10"
"537","140652","파리공원(시)","양천구 목동 906-1","42","유료","37.53390306","126.87654112","150","5","150","5"
"5621","1546919","한강로2가동(구)","용산구 한강로2가 412-0","24","유료","37.52919225","126.96975304","250","5","250","5"
"586","1550364","한강쇼핑(구)","용산구 이촌동 301-5","15","유료","37.5206902","126.97126216","250","5","250","5"
"601","1543335","한국거래소앞 노상주차장(구)","영등포구 여의도동 33-0","33","유료","37.52214771","126.92789906","1000","10","1000","10"
"634","1511025","한국관광공사옆 노상공영주차장(구)","중구 다동 18-0 0","9","유료","37.56836964","126.9820308","600","5","600","5"
"643","1540613","한국통신(시)","양천구 목동 924-5","27","유료","37.52824981","126.87185989","250","5","250","5"
"675","1033754","포이초교(구)","강남구 개포동 1273-0","194","유료","37.47564571","127.05236496","200","5","200","5"
"676","173891","풍납1공영주차장(구)","송파구 풍납동 154-0","56","유료","37.53551936","127.12029156","50","5","50","5"
"677","173890","풍납2 공영주차장(구)","송파구 풍납동 175-0","81","유료","37.53604678","127.11607498","50","5","50","5"
"678","1421476","풍납유수지공영주차장(구)","송파구 풍납동 387-0","234","유료","37.52529597","127.10604326","250","5","250","5"
"679","173864","필동 공영주차장(구)","중구 필동3가 62-12","48","유료","37.55660191","126.99589418","150","5","150","5"
"680","1366393","하늘공원주차장(구)","구로구 가리봉동 1-11","198","유료","37.48713079","126.88080148","150","5","150","5"
"681","172903","하늘주차장(구)","양천구 신정동 323-33","30","유료","37.51523307","126.86151131","150","5","150","5"
"682","172052","하왕십리(건물)(구)","성동구 하왕십리동 955-34","101","유료","37.56039538","127.02791492","100","5","100","5"
"695","172037","한남유수지공영주차장(구)","용산구 한남동 522-44","159","유료","37.5298673","127.00740065","150","5","150","5"
"696","1056832","한누리(구)","동작구 사당동 1046-1","45","유료","37.47743578","126.97707837","150","5","150","5"
"697","172927","한두공영주차장(구)","양천구 목동 610-5","39","유료","37.54876937","126.86622879","50","5","50","5"
"698","1367218","한마음주차장(구)","양천구 목동 914-5","426","유료","37.53067739","126.8778804","150","5","150","5"
"6991","1451977","한미빌딩옆(구)","종로구 공평동 283-0","2","유료","37.57190485","126.98447777","1000","10","1000","10"
"7011","1451980","한미빌딩옆(구)","종로구 인사동 283-0","7","유료","37.57179781","126.98451337","1000","10","1000","10"
"708","172947","한서 공영주차장(구)","마포구 염리동 24-170","113","유료","37.552871","126.94933329","1000","60","500","30"
"709","1568841","한신동성아파트옆(구)","노원구 하계동 256-7","16","유료","37.63981324","127.07434886","250","5","0","0"
"725","172967","한울주차장(구)","양천구 신월동 957-10","21","유료","37.51995355","126.83176417","50","5","50","5"
"726","1540769","한전뒷길(구)","양천구 신정동 319-25","24","유료","37.51962889","126.86915196","150","5","150","5"
"7501","1544941","한진해운 앞 노상주차장(구)","영등포구 여의도동 25-11","17","유료","37.52302872","126.92524349","1000","10","1000","10"
"7671","1505192","합정 노상 공영주차장(구)","마포구 서교동 394-22","29","유료","37.54843093","126.91900833","400","5","400","5"
"796","173362","행운동제1공영주차장(舊 봉천6동 까치공영주차장)(구)","관악구 봉천동 1677-10","79","유료","37.47993264","126.96067508","150","5","150","5"
